[2021-07-10T08:32:02.067506Z |   MainThread |     INFO] Logger Initialized
[2021-07-10T08:32:02.091577Z |   MainThread |     INFO] {"class":"VERSION","release":"3.17","rev":"3.17","proto_major":3,"proto_minor":12}
[2021-07-10T08:32:04.495970Z |   MainThread |     INFO] {"class":"DEVICE","path":"/dev/serial0","driver":"MTK-3301","subtype":"AXN_2.31_3339_13101700-5632","activated":"2021-07-10T08:32:04.177Z","flags":1,"native":0,"bps":9600,"parity":"N","stopbits":1,"cycle":1.00,"mincycle":0.20}
[2021-07-10T08:32:05.097824Z |   MainThread |     INFO] {"class":"TPV","device":"/dev/serial0","mode":1}
[2021-07-10T08:32:06.100255Z |   MainThread |     INFO] {"class":"TPV","device":"/dev/serial0","mode":1,"time":"1980-01-06T00:00:14.799Z","ept":0.005}
[2021-07-10T08:32:07.102673Z |   MainThread |     INFO] {"class":"TPV","device":"/dev/serial0","mode":1,"time":"1980-01-06T00:00:15.799Z","ept":0.005}
[2021-07-10T08:32:08.104650Z |   MainThread |     INFO] {"class":"TPV","device":"/dev/serial0","mode":1,"time":"1980-01-06T00:00:16.799Z","ept":0.005}
[2021-07-10T08:32:09.107029Z |   MainThread |     INFO] {"class":"TPV","device":"/dev/serial0","mode":1,"time":"1980-01-06T00:00:17.799Z","ept":0.005}
[2021-07-10T08:32:10.109364Z |   MainThread |     INFO] {"class":"TPV","device":"/dev/serial0","mode":1,"time":"1980-01-06T00:00:18.799Z","ept":0.005}
[2021-07-10T08:32:11.111746Z |   MainThread |     INFO] {"class":"TPV","device":"/dev/serial0","mode":1,"time":"1980-01-06T00:00:19.799Z","ept":0.005}
[2021-07-10T08:32:12.114081Z |   MainThread |     INFO] {"class":"TPV","device":"/dev/serial0","mode":1,"time":"1980-01-06T00:00:20.799Z","ept":0.005}
[2021-07-10T08:32:13.115925Z |   MainThread |     INFO] {"class":"TPV","device":"/dev/serial0","mode":1,"time":"1980-01-06T00:00:21.799Z","ept":0.005}
[2021-07-10T08:32:14.117970Z |   MainThread |     INFO] {"class":"TPV","device":"/dev/serial0","mode":1,"time":"1980-01-06T00:00:22.799Z","ept":0.005}
[2021-07-10T08:32:15.120175Z |   MainThread |     INFO] {"class":"TPV","device":"/dev/serial0","mode":1,"time":"1980-01-06T00:00:23.799Z","ept":0.005}
[2021-07-10T08:32:16.122459Z |   MainThread |     INFO] {"class":"TPV","device":"/dev/serial0","mode":1,"time":"1980-01-06T00:00:24.799Z","ept":0.005}
[2021-07-10T08:32:17.124903Z |   MainThread |     INFO] {"class":"TPV","device":"/dev/serial0","mode":1,"time":"1980-01-06T00:00:25.799Z","ept":0.005}
[2021-07-10T08:32:18.127286Z |   MainThread |     INFO] {"class":"TPV","device":"/dev/serial0","mode":1,"time":"1980-01-06T00:00:26.799Z","ept":0.005}
[2021-07-10T08:32:19.129640Z |   MainThread |     INFO] {"class":"TPV","device":"/dev/serial0","mode":1,"time":"1980-01-06T00:00:27.799Z","ept":0.005}
[2021-07-10T08:32:20.132003Z |   MainThread |     INFO] {"class":"TPV","device":"/dev/serial0","mode":1,"time":"1980-01-06T00:00:28.799Z","ept":0.005}
[2021-07-10T08:32:21.134391Z |   MainThread |     INFO] {"class":"TPV","device":"/dev/serial0","mode":1,"time":"1980-01-06T00:00:29.799Z","ept":0.005}
[2021-07-10T08:32:22.136810Z |   MainThread |     INFO] {"class":"TPV","device":"/dev/serial0","mode":1,"time":"1980-01-06T00:00:30.799Z","ept":0.005}
[2021-07-10T08:32:23.139226Z |   MainThread |     INFO] {"class":"TPV","device":"/dev/serial0","mode":1,"time":"1980-01-06T00:00:31.799Z","ept":0.005}
[2021-07-10T08:32:24.141604Z |   MainThread |     INFO] {"class":"TPV","device":"/dev/serial0","mode":1,"time":"1980-01-06T00:00:32.799Z","ept":0.005}
[2021-07-10T08:32:25.143713Z |   MainThread |     INFO] {"class":"TPV","device":"/dev/serial0","mode":1,"time":"1980-01-06T00:00:33.799Z","ept":0.005}
[2021-07-10T08:32:26.145911Z |   MainThread |     INFO] {"class":"TPV","device":"/dev/serial0","mode":1,"time":"1980-01-06T00:00:34.799Z","ept":0.005}
[2021-07-10T08:32:27.148440Z |   MainThread |     INFO] {"class":"TPV","device":"/dev/serial0","mode":1,"time":"1980-01-06T00:00:35.799Z","ept":0.005}
[2021-07-10T08:32:28.150877Z |   MainThread |     INFO] {"class":"TPV","device":"/dev/serial0","mode":1,"time":"1980-01-06T00:00:36.799Z","ept":0.005}
[2021-07-10T08:32:29.153242Z |   MainThread |     INFO] {"class":"TPV","device":"/dev/serial0","mode":1,"time":"1980-01-06T00:00:37.799Z","ept":0.005}
[2021-07-10T08:32:30.155734Z |   MainThread |     INFO] {"class":"TPV","device":"/dev/serial0","mode":1,"time":"1980-01-06T00:00:38.799Z","ept":0.005}
[2021-07-10T08:32:31.158098Z |   MainThread |     INFO] {"class":"TPV","device":"/dev/serial0","mode":1,"time":"1980-01-06T00:00:39.799Z","ept":0.005}
[2021-07-10T08:32:32.160571Z |   MainThread |     INFO] {"class":"TPV","device":"/dev/serial0","mode":1,"time":"1980-01-06T00:00:40.799Z","ept":0.005}
[2021-07-10T08:32:33.162108Z |   MainThread |     INFO] {"class":"TPV","device":"/dev/serial0","mode":1,"time":"1980-01-06T00:00:41.799Z","ept":0.005}
[2021-07-10T08:32:34.163574Z |   MainThread |     INFO] {"class":"TPV","device":"/dev/serial0","mode":1,"time":"1980-01-06T00:00:42.799Z","ept":0.005}
[2021-07-10T08:32:35.165802Z |   MainThread |     INFO] {"class":"TPV","device":"/dev/serial0","mode":1,"time":"1980-01-06T00:00:43.799Z","ept":0.005}
[2021-07-10T08:32:36.168104Z |   MainThread |     INFO] {"class":"TPV","device":"/dev/serial0","mode":1,"time":"1980-01-06T00:00:44.799Z","ept":0.005}
[2021-07-10T08:32:37.170604Z |   MainThread |     INFO] {"class":"TPV","device":"/dev/serial0","mode":1,"time":"1980-01-06T00:00:45.799Z","ept":0.005}
[2021-07-10T08:32:38.172196Z |   MainThread |     INFO] {"class":"TPV","device":"/dev/serial0","mode":1,"time":"1980-01-06T00:00:46.799Z","ept":0.005}
[2021-07-10T08:32:39.173666Z |   MainThread |     INFO] {"class":"TPV","device":"/dev/serial0","mode":1,"time":"1980-01-06T00:00:47.799Z","ept":0.005}
[2021-07-10T08:32:40.175651Z |   MainThread |     INFO] {"class":"TPV","device":"/dev/serial0","mode":1,"time":"1980-01-06T00:00:48.799Z","ept":0.005}
[2021-07-10T08:32:41.178030Z |   MainThread |     INFO] {"class":"TPV","device":"/dev/serial0","mode":1,"time":"1980-01-06T00:00:49.799Z","ept":0.005}
[2021-07-10T08:32:42.180518Z |   MainThread |     INFO] {"class":"TPV","device":"/dev/serial0","mode":1,"time":"1980-01-06T00:00:50.799Z","ept":0.005}
[2021-07-10T08:32:43.183027Z |   MainThread |     INFO] {"class":"TPV","device":"/dev/serial0","mode":1,"time":"1980-01-06T00:00:51.799Z","ept":0.005}
[2021-07-10T08:32:44.185329Z |   MainThread |     INFO] {"class":"TPV","device":"/dev/serial0","mode":1,"time":"1980-01-06T00:00:52.799Z","ept":0.005}
[2021-07-10T08:32:45.187667Z |   MainThread |     INFO] {"class":"TPV","device":"/dev/serial0","mode":1,"time":"1980-01-06T00:00:53.799Z","ept":0.005}
[2021-07-10T08:32:46.189984Z |   MainThread |     INFO] {"class":"TPV","device":"/dev/serial0","mode":1,"time":"1980-01-06T00:00:54.799Z","ept":0.005}
[2021-07-10T08:32:47.192303Z |   MainThread |     INFO] {"class":"TPV","device":"/dev/serial0","mode":1,"time":"1980-01-06T00:00:55.799Z","ept":0.005}
[2021-07-10T08:32:48.194612Z |   MainThread |     INFO] {"class":"TPV","device":"/dev/serial0","mode":1,"time":"1980-01-06T00:00:56.799Z","ept":0.005}
[2021-07-10T08:32:49.196983Z |   MainThread |     INFO] {"class":"TPV","device":"/dev/serial0","mode":1,"time":"1980-01-06T00:00:57.799Z","ept":0.005}
[2021-07-10T08:32:50.199315Z |   MainThread |     INFO] {"class":"TPV","device":"/dev/serial0","mode":1,"time":"1980-01-06T00:00:58.799Z","ept":0.005}
[2021-07-10T08:32:51.201600Z |   MainThread |     INFO] {"class":"TPV","device":"/dev/serial0","mode":1,"time":"1980-01-06T00:00:59.799Z","ept":0.005}
[2021-07-10T08:32:52.203920Z |   MainThread |     INFO] {"class":"TPV","device":"/dev/serial0","mode":1,"time":"1980-01-06T00:01:00.799Z","ept":0.005}
[2021-07-10T08:32:53.206114Z |   MainThread |     INFO] {"class":"TPV","device":"/dev/serial0","mode":1,"time":"1980-01-06T00:01:01.799Z","ept":0.005}
[2021-07-10T08:32:54.207976Z |   MainThread |     INFO] {"class":"TPV","device":"/dev/serial0","mode":1,"time":"1980-01-06T00:01:02.799Z","ept":0.005}
[2021-07-10T08:32:55.209507Z |   MainThread |     INFO] {"class":"TPV","device":"/dev/serial0","mode":1,"time":"1980-01-06T00:01:03.799Z","ept":0.005}
[2021-07-10T08:32:56.211300Z |   MainThread |     INFO] {"class":"TPV","device":"/dev/serial0","mode":1,"time":"1980-01-06T00:01:04.799Z","ept":0.005}
[2021-07-10T08:32:57.213794Z |   MainThread |     INFO] {"class":"TPV","device":"/dev/serial0","mode":1,"time":"1980-01-06T00:01:05.799Z","ept":0.005}
[2021-07-10T08:32:58.216113Z |   MainThread |     INFO] {"class":"TPV","device":"/dev/serial0","mode":1,"time":"1980-01-06T00:01:06.799Z","ept":0.005}
[2021-07-10T08:32:59.018106Z |   MainThread |     INFO] {"class":"TPV","device":"/dev/serial0","mode":1,"time":"1980-01-06T00:01:07.799Z","ept":0.005}
[2021-07-10T08:33:00.220761Z |   MainThread |     INFO] {"class":"TPV","device":"/dev/serial0","mode":1,"time":"1980-01-06T00:01:08.799Z","ept":0.005}
[2021-07-10T08:33:01.223221Z |   MainThread |     INFO] {"class":"TPV","device":"/dev/serial0","mode":1,"time":"1980-01-06T00:01:09.799Z","ept":0.005}
[2021-07-10T08:33:02.025360Z |   MainThread |     INFO] {"class":"TPV","device":"/dev/serial0","mode":1,"time":"1980-01-06T00:01:10.799Z","ept":0.005}
[2021-07-10T08:33:03.027721Z |   MainThread |     INFO] {"class":"TPV","device":"/dev/serial0","mode":1,"time":"1980-01-06T00:01:11.799Z","ept":0.005}
[2021-07-10T08:33:04.030034Z |   MainThread |     INFO] {"class":"TPV","device":"/dev/serial0","mode":1,"time":"1980-01-06T00:01:12.799Z","ept":0.005}
[2021-07-10T08:33:05.032377Z |   MainThread |     INFO] {"class":"TPV","device":"/dev/serial0","mode":1,"time":"1980-01-06T00:01:13.799Z","ept":0.005}
[2021-07-10T08:33:06.034782Z |   MainThread |     INFO] {"class":"TPV","device":"/dev/serial0","mode":1,"time":"1980-01-06T00:01:14.799Z","ept":0.005}
[2021-07-10T08:33:07.036924Z |   MainThread |     INFO] {"class":"TPV","device":"/dev/serial0","mode":1,"time":"1980-01-06T00:01:15.799Z","ept":0.005}
[2021-07-10T08:33:08.039093Z |   MainThread |     INFO] {"class":"TPV","device":"/dev/serial0","mode":1,"time":"1980-01-06T00:01:16.799Z","ept":0.005}
[2021-07-10T08:33:09.041318Z |   MainThread |     INFO] {"class":"TPV","device":"/dev/serial0","mode":1,"time":"1980-01-06T00:01:17.799Z","ept":0.005}
[2021-07-10T08:33:10.043686Z |   MainThread |     INFO] {"class":"TPV","device":"/dev/serial0","mode":1,"time":"1980-01-06T00:01:18.799Z","ept":0.005}
[2021-07-10T08:33:11.045912Z |   MainThread |     INFO] {"class":"TPV","device":"/dev/serial0","mode":1,"time":"1980-01-06T00:01:19.799Z","ept":0.005}
[2021-07-10T08:33:12.047853Z |   MainThread |     INFO] {"class":"TPV","device":"/dev/serial0","mode":1,"time":"1980-01-06T00:01:20.799Z","ept":0.005}
[2021-07-10T08:33:13.050167Z |   MainThread |     INFO] {"class":"TPV","device":"/dev/serial0","mode":1,"time":"1980-01-06T00:01:21.799Z","ept":0.005}
[2021-07-10T08:33:14.052550Z |   MainThread |     INFO] {"class":"TPV","device":"/dev/serial0","mode":1,"time":"1980-01-06T00:01:22.799Z","ept":0.005}
[2021-07-10T08:33:15.054933Z |   MainThread |     INFO] {"class":"TPV","device":"/dev/serial0","mode":1,"time":"1980-01-06T00:01:23.799Z","ept":0.005}
[2021-07-10T08:33:16.057277Z |   MainThread |     INFO] {"class":"TPV","device":"/dev/serial0","mode":1,"time":"1980-01-06T00:01:24.799Z","ept":0.005}
[2021-07-10T08:33:17.059390Z |   MainThread |     INFO] {"class":"TPV","device":"/dev/serial0","mode":1,"time":"1980-01-06T00:01:25.799Z","ept":0.005}
[2021-07-10T08:33:18.061666Z |   MainThread |     INFO] {"class":"TPV","device":"/dev/serial0","mode":1,"time":"1980-01-06T00:01:26.799Z","ept":0.005}
[2021-07-10T08:33:19.064075Z |   MainThread |     INFO] {"class":"TPV","device":"/dev/serial0","mode":1,"time":"1980-01-06T00:01:27.799Z","ept":0.005}
[2021-07-10T08:33:20.066527Z |   MainThread |     INFO] {"class":"TPV","device":"/dev/serial0","mode":1,"time":"1980-01-06T00:01:28.799Z","ept":0.005}
[2021-07-10T08:33:21.068927Z |   MainThread |     INFO] {"class":"TPV","device":"/dev/serial0","mode":1,"time":"1980-01-06T00:01:29.799Z","ept":0.005}
[2021-07-10T08:33:22.070921Z |   MainThread |     INFO] {"class":"TPV","device":"/dev/serial0","mode":1,"time":"1980-01-06T00:01:30.799Z","ept":0.005}
[2021-07-10T08:33:23.072326Z |   MainThread |     INFO] {"class":"TPV","device":"/dev/serial0","mode":1,"time":"1980-01-06T00:01:31.799Z","ept":0.005}
[2021-07-10T08:33:24.074837Z |   MainThread |     INFO] {"class":"TPV","device":"/dev/serial0","mode":1,"time":"1980-01-06T00:01:32.799Z","ept":0.005}
[2021-07-10T08:33:25.077187Z |   MainThread |     INFO] {"class":"TPV","device":"/dev/serial0","mode":1,"time":"1980-01-06T00:01:33.799Z","ept":0.005}
[2021-07-10T08:33:26.079549Z |   MainThread |     INFO] {"class":"TPV","device":"/dev/serial0","mode":1,"time":"1980-01-06T00:01:34.799Z","ept":0.005}
[2021-07-10T08:33:27.081308Z |   MainThread |     INFO] {"class":"TPV","device":"/dev/serial0","mode":1,"time":"1980-01-06T00:01:35.799Z","ept":0.005}
[2021-07-10T08:33:28.082956Z |   MainThread |     INFO] {"class":"TPV","device":"/dev/serial0","mode":1,"time":"1980-01-06T00:01:36.799Z","ept":0.005}
[2021-07-10T08:33:29.084575Z |   MainThread |     INFO] {"class":"TPV","device":"/dev/serial0","mode":1,"time":"1980-01-06T00:01:37.799Z","ept":0.005}
[2021-07-10T08:33:30.086846Z |   MainThread |     INFO] {"class":"TPV","device":"/dev/serial0","mode":1,"time":"1980-01-06T00:01:38.799Z","ept":0.005}
[2021-07-10T08:33:31.089139Z |   MainThread |     INFO] {"class":"TPV","device":"/dev/serial0","mode":1,"time":"1980-01-06T00:01:39.799Z","ept":0.005}
[2021-07-10T08:33:32.091495Z |   MainThread |     INFO] {"class":"TPV","device":"/dev/serial0","mode":1,"time":"1980-01-06T00:01:40.799Z","ept":0.005}
[2021-07-10T08:33:33.093838Z |   MainThread |     INFO] {"class":"TPV","device":"/dev/serial0","mode":1,"time":"1980-01-06T00:01:41.799Z","ept":0.005}
[2021-07-10T08:33:34.095793Z |   MainThread |     INFO] {"class":"TPV","device":"/dev/serial0","mode":1,"time":"1980-01-06T00:01:42.799Z","ept":0.005}
[2021-07-10T08:33:35.097949Z |   MainThread |     INFO] {"class":"TPV","device":"/dev/serial0","mode":1,"time":"1980-01-06T00:01:43.799Z","ept":0.005}
[2021-07-10T08:33:36.100189Z |   MainThread |     INFO] {"class":"TPV","device":"/dev/serial0","mode":1,"time":"1980-01-06T00:01:44.799Z","ept":0.005}
[2021-07-10T08:33:37.102391Z |   MainThread |     INFO] {"class":"TPV","device":"/dev/serial0","mode":1,"time":"1980-01-06T00:01:45.799Z","ept":0.005}
[2021-07-10T08:33:38.104876Z |   MainThread |     INFO] {"class":"TPV","device":"/dev/serial0","mode":1,"time":"1980-01-06T00:01:46.799Z","ept":0.005}
[2021-07-10T08:33:39.107108Z |   MainThread |     INFO] {"class":"TPV","device":"/dev/serial0","mode":1,"time":"1980-01-06T00:01:47.799Z","ept":0.005}
[2021-07-10T08:33:40.109508Z |   MainThread |     INFO] {"class":"TPV","device":"/dev/serial0","mode":1,"time":"1980-01-06T00:01:48.799Z","ept":0.005}
[2021-07-10T08:33:41.111841Z |   MainThread |     INFO] {"class":"TPV","device":"/dev/serial0","mode":1,"time":"1980-01-06T00:01:49.799Z","ept":0.005}
[2021-07-10T08:33:42.114235Z |   MainThread |     INFO] {"class":"TPV","device":"/dev/serial0","mode":1,"time":"1980-01-06T00:01:50.800Z","ept":0.005}
[2021-07-10T08:33:43.116530Z |   MainThread |     INFO] {"class":"TPV","device":"/dev/serial0","mode":1,"time":"1980-01-06T00:01:51.800Z","ept":0.005}
[2021-07-10T08:33:44.118885Z |   MainThread |     INFO] {"class":"TPV","device":"/dev/serial0","mode":1,"time":"1980-01-06T00:01:52.800Z","ept":0.005}
[2021-07-10T08:33:45.121282Z |   MainThread |     INFO] {"class":"TPV","device":"/dev/serial0","mode":1,"time":"1980-01-06T00:01:53.800Z","ept":0.005}
[2021-07-10T08:33:46.123661Z |   MainThread |     INFO] {"class":"TPV","device":"/dev/serial0","mode":1,"time":"1980-01-06T00:01:54.800Z","ept":0.005}
[2021-07-10T08:33:47.126028Z |   MainThread |     INFO] {"class":"TPV","device":"/dev/serial0","mode":1,"time":"1980-01-06T00:01:55.800Z","ept":0.005}
[2021-07-10T08:33:48.128453Z |   MainThread |     INFO] {"class":"TPV","device":"/dev/serial0","mode":1,"time":"1980-01-06T00:01:56.800Z","ept":0.005}
[2021-07-10T08:33:49.130698Z |   MainThread |     INFO] {"class":"TPV","device":"/dev/serial0","mode":1,"time":"1980-01-06T00:01:57.800Z","ept":0.005}
[2021-07-10T08:33:50.133153Z |   MainThread |     INFO] {"class":"TPV","device":"/dev/serial0","mode":1,"time":"1980-01-06T00:01:58.800Z","ept":0.005}
[2021-07-10T08:33:51.135657Z |   MainThread |     INFO] {"class":"TPV","device":"/dev/serial0","mode":1,"time":"1980-01-06T00:01:59.800Z","ept":0.005}
[2021-07-10T08:33:52.138052Z |   MainThread |     INFO] {"class":"TPV","device":"/dev/serial0","mode":1,"time":"1980-01-06T00:02:00.800Z","ept":0.005}
[2021-07-10T08:33:53.140284Z |   MainThread |     INFO] {"class":"TPV","device":"/dev/serial0","mode":1,"time":"1980-01-06T00:02:01.800Z","ept":0.005}
[2021-07-10T08:33:54.142674Z |   MainThread |     INFO] {"class":"TPV","device":"/dev/serial0","mode":1,"time":"1980-01-06T00:02:02.800Z","ept":0.005}
[2021-07-10T08:33:55.144922Z |   MainThread |     INFO] {"class":"TPV","device":"/dev/serial0","mode":1,"time":"1980-01-06T00:02:03.800Z","ept":0.005}
[2021-07-10T08:33:56.147054Z |   MainThread |     INFO] {"class":"TPV","device":"/dev/serial0","mode":1,"time":"1980-01-06T00:02:04.800Z","ept":0.005}
[2021-07-10T08:33:57.149346Z |   MainThread |     INFO] {"class":"TPV","device":"/dev/serial0","mode":1,"time":"1980-01-06T00:02:05.800Z","ept":0.005}
[2021-07-10T08:33:58.151718Z |   MainThread |     INFO] {"class":"TPV","device":"/dev/serial0","mode":1,"time":"1980-01-06T00:02:06.800Z","ept":0.005}
[2021-07-10T08:33:59.153262Z |   MainThread |     INFO] {"class":"TPV","device":"/dev/serial0","mode":1,"time":"1980-01-06T00:02:07.800Z","ept":0.005}
[2021-07-10T08:34:00.154838Z |   MainThread |     INFO] {"class":"TPV","device":"/dev/serial0","mode":1,"time":"1980-01-06T00:02:08.800Z","ept":0.005}
[2021-07-10T08:34:01.156438Z |   MainThread |     INFO] {"class":"TPV","device":"/dev/serial0","mode":1,"time":"1980-01-06T00:02:09.800Z","ept":0.005}
[2021-07-10T08:34:02.161015Z |   MainThread |     INFO] {"class":"TPV","device":"/dev/serial0","mode":1,"time":"1980-01-06T00:02:10.800Z","ept":0.005}
[2021-07-10T08:34:03.162482Z |   MainThread |     INFO] {"class":"TPV","device":"/dev/serial0","mode":1,"time":"1980-01-06T00:02:11.800Z","ept":0.005}
[2021-07-10T08:34:04.164790Z |   MainThread |     INFO] {"class":"TPV","device":"/dev/serial0","mode":1,"time":"1980-01-06T00:02:12.800Z","ept":0.005}
[2021-07-10T08:34:05.167074Z |   MainThread |     INFO] {"class":"TPV","device":"/dev/serial0","mode":1,"time":"1980-01-06T00:02:13.800Z","ept":0.005}
[2021-07-10T08:34:06.169328Z |   MainThread |     INFO] {"class":"TPV","device":"/dev/serial0","mode":1,"time":"1980-01-06T00:02:14.800Z","ept":0.005}
[2021-07-10T08:34:07.171714Z |   MainThread |     INFO] {"class":"TPV","device":"/dev/serial0","mode":1,"time":"1980-01-06T00:02:15.800Z","ept":0.005}
[2021-07-10T08:34:08.173513Z |   MainThread |     INFO] {"class":"TPV","device":"/dev/serial0","mode":1,"time":"1980-01-06T00:02:16.800Z","ept":0.005}
[2021-07-10T08:34:09.175309Z |   MainThread |     INFO] {"class":"TPV","device":"/dev/serial0","mode":1,"time":"1980-01-06T00:02:17.800Z","ept":0.005}
[2021-07-10T08:34:10.177934Z |   MainThread |     INFO] {"class":"TPV","device":"/dev/serial0","mode":1,"time":"1980-01-06T00:02:18.800Z","ept":0.005}
[2021-07-10T08:34:11.180366Z |   MainThread |     INFO] {"class":"TPV","device":"/dev/serial0","mode":1,"time":"1980-01-06T00:02:19.800Z","ept":0.005}
[2021-07-10T08:34:12.182054Z |   MainThread |     INFO] {"class":"TPV","device":"/dev/serial0","mode":1,"time":"1980-01-06T00:02:20.800Z","ept":0.005}
[2021-07-10T08:34:13.183437Z |   MainThread |     INFO] {"class":"TPV","device":"/dev/serial0","mode":1,"time":"1980-01-06T00:02:21.800Z","ept":0.005}
[2021-07-10T08:34:14.185031Z |   MainThread |     INFO] {"class":"TPV","device":"/dev/serial0","mode":1,"time":"1980-01-06T00:02:22.800Z","ept":0.005}
[2021-07-10T08:34:15.187261Z |   MainThread |     INFO] {"class":"TPV","device":"/dev/serial0","mode":1,"time":"1980-01-06T00:02:23.800Z","ept":0.005}
[2021-07-10T08:34:16.189433Z |   MainThread |     INFO] {"class":"TPV","device":"/dev/serial0","mode":1,"time":"1980-01-06T00:02:24.800Z","ept":0.005}
[2021-07-10T08:34:17.191481Z |   MainThread |     INFO] {"class":"TPV","device":"/dev/serial0","mode":1,"time":"1980-01-06T00:02:25.800Z","ept":0.005}
[2021-07-10T08:34:18.193649Z |   MainThread |     INFO] {"class":"TPV","device":"/dev/serial0","mode":1,"time":"1980-01-06T00:02:26.800Z","ept":0.005}
[2021-07-10T08:34:19.195935Z |   MainThread |     INFO] {"class":"TPV","device":"/dev/serial0","mode":1,"time":"1980-01-06T00:02:27.800Z","ept":0.005}
[2021-07-10T08:34:20.198303Z |   MainThread |     INFO] {"class":"TPV","device":"/dev/serial0","mode":1,"time":"1980-01-06T00:02:28.800Z","ept":0.005}
[2021-07-10T08:34:21.200602Z |   MainThread |     INFO] {"class":"TPV","device":"/dev/serial0","mode":1,"time":"1980-01-06T00:02:29.800Z","ept":0.005}
[2021-07-10T08:34:22.202862Z |   MainThread |     INFO] {"class":"TPV","device":"/dev/serial0","mode":1,"time":"1980-01-06T00:02:30.800Z","ept":0.005}
[2021-07-10T08:34:23.204992Z |   MainThread |     INFO] {"class":"TPV","device":"/dev/serial0","mode":1,"time":"1980-01-06T00:02:31.800Z","ept":0.005}
[2021-07-10T08:34:24.207325Z |   MainThread |     INFO] {"class":"TPV","device":"/dev/serial0","mode":1,"time":"1980-01-06T00:02:32.800Z","ept":0.005}
[2021-07-10T08:34:25.209703Z |   MainThread |     INFO] {"class":"TPV","device":"/dev/serial0","mode":1,"time":"1980-01-06T00:02:33.800Z","ept":0.005}
[2021-07-10T08:34:26.212067Z |   MainThread |     INFO] {"class":"TPV","device":"/dev/serial0","mode":1,"time":"1980-01-06T00:02:34.800Z","ept":0.005}
[2021-07-10T08:34:27.214006Z |   MainThread |     INFO] {"class":"TPV","device":"/dev/serial0","mode":1,"time":"1980-01-06T00:02:35.800Z","ept":0.005}
[2021-07-10T08:34:28.216179Z |   MainThread |     INFO] {"class":"TPV","device":"/dev/serial0","mode":1,"time":"1980-01-06T00:02:36.800Z","ept":0.005}
[2021-07-10T08:34:29.218576Z |   MainThread |     INFO] {"class":"TPV","device":"/dev/serial0","mode":1,"time":"1980-01-06T00:02:37.800Z","ept":0.005}
[2021-07-10T08:34:30.221014Z |   MainThread |     INFO] {"class":"TPV","device":"/dev/serial0","mode":1,"time":"1980-01-06T00:02:38.800Z","ept":0.005}
[2021-07-10T08:34:31.022976Z |   MainThread |     INFO] {"class":"TPV","device":"/dev/serial0","mode":1,"time":"1980-01-06T00:02:39.800Z","ept":0.005}
[2021-07-10T08:34:32.025335Z |   MainThread |     INFO] {"class":"TPV","device":"/dev/serial0","mode":1,"time":"1980-01-06T00:02:40.800Z","ept":0.005}
[2021-07-10T08:34:33.227856Z |   MainThread |     INFO] {"class":"TPV","device":"/dev/serial0","mode":1,"time":"1980-01-06T00:02:41.800Z","ept":0.005}
[2021-07-10T08:34:34.029891Z |   MainThread |     INFO] {"class":"TPV","device":"/dev/serial0","mode":1,"time":"1980-01-06T00:02:42.800Z","ept":0.005}
[2021-07-10T08:34:35.032252Z |   MainThread |     INFO] {"class":"TPV","device":"/dev/serial0","mode":1,"time":"1980-01-06T00:02:43.800Z","ept":0.005}
[2021-07-10T08:34:36.034642Z |   MainThread |     INFO] {"class":"TPV","device":"/dev/serial0","mode":1,"time":"1980-01-06T00:02:44.800Z","ept":0.005}
[2021-07-10T08:34:37.037005Z |   MainThread |     INFO] {"class":"TPV","device":"/dev/serial0","mode":1,"time":"1980-01-06T00:02:45.800Z","ept":0.005}
[2021-07-10T08:34:38.039396Z |   MainThread |     INFO] {"class":"TPV","device":"/dev/serial0","mode":1,"time":"1980-01-06T00:02:46.800Z","ept":0.005}
[2021-07-10T08:34:39.041786Z |   MainThread |     INFO] {"class":"TPV","device":"/dev/serial0","mode":1,"time":"1980-01-06T00:02:47.800Z","ept":0.005}
[2021-07-10T08:34:40.044149Z |   MainThread |     INFO] {"class":"TPV","device":"/dev/serial0","mode":1,"time":"1980-01-06T00:02:48.800Z","ept":0.005}
[2021-07-10T08:34:41.046578Z |   MainThread |     INFO] {"class":"TPV","device":"/dev/serial0","mode":1,"time":"1980-01-06T00:02:49.800Z","ept":0.005}
[2021-07-10T08:34:42.048266Z |   MainThread |     INFO] {"class":"TPV","device":"/dev/serial0","mode":1,"time":"1980-01-06T00:02:50.800Z","ept":0.005}
[2021-07-10T08:34:43.050057Z |   MainThread |     INFO] {"class":"TPV","device":"/dev/serial0","mode":1,"time":"1980-01-06T00:02:51.800Z","ept":0.005}
[2021-07-10T08:34:44.051979Z |   MainThread |     INFO] {"class":"TPV","device":"/dev/serial0","mode":1,"time":"1980-01-06T00:02:52.800Z","ept":0.005}
[2021-07-10T08:34:45.054399Z |   MainThread |     INFO] {"class":"TPV","device":"/dev/serial0","mode":1,"time":"1980-01-06T00:02:53.800Z","ept":0.005}
[2021-07-10T08:34:46.056821Z |   MainThread |     INFO] {"class":"TPV","device":"/dev/serial0","mode":1,"time":"1980-01-06T00:02:54.800Z","ept":0.005}
[2021-07-10T08:34:47.059237Z |   MainThread |     INFO] {"class":"TPV","device":"/dev/serial0","mode":1,"time":"1980-01-06T00:02:55.800Z","ept":0.005}
[2021-07-10T08:34:48.061519Z |   MainThread |     INFO] {"class":"TPV","device":"/dev/serial0","mode":1,"time":"1980-01-06T00:02:56.800Z","ept":0.005}
[2021-07-10T08:34:49.063697Z |   MainThread |     INFO] {"class":"TPV","device":"/dev/serial0","mode":1,"time":"1980-01-06T00:02:57.800Z","ept":0.005}
[2021-07-10T08:34:50.065833Z |   MainThread |     INFO] {"class":"TPV","device":"/dev/serial0","mode":1,"time":"1980-01-06T00:02:58.800Z","ept":0.005}
[2021-07-10T08:34:51.068028Z |   MainThread |     INFO] {"class":"TPV","device":"/dev/serial0","mode":1,"time":"1980-01-06T00:02:59.800Z","ept":0.005}
[2021-07-10T08:34:52.070459Z |   MainThread |     INFO] {"class":"TPV","device":"/dev/serial0","mode":1,"time":"1980-01-06T00:03:00.800Z","ept":0.005}
[2021-07-10T08:34:53.072736Z |   MainThread |     INFO] {"class":"TPV","device":"/dev/serial0","mode":1,"time":"1980-01-06T00:03:01.800Z","ept":0.005}
[2021-07-10T08:34:54.075000Z |   MainThread |     INFO] {"class":"TPV","device":"/dev/serial0","mode":1,"time":"1980-01-06T00:03:02.800Z","ept":0.005}
[2021-07-10T08:34:55.077296Z |   MainThread |     INFO] {"class":"TPV","device":"/dev/serial0","mode":1,"time":"1980-01-06T00:03:03.800Z","ept":0.005}
[2021-07-10T08:34:56.079592Z |   MainThread |     INFO] {"class":"TPV","device":"/dev/serial0","mode":1,"time":"1980-01-06T00:03:04.800Z","ept":0.005}
[2021-07-10T08:34:57.085784Z |   MainThread |     INFO] {"class":"TPV","device":"/dev/serial0","mode":1,"time":"1980-01-06T00:03:05.800Z","ept":0.005}
[2021-07-10T08:34:58.088063Z |   MainThread |     INFO] {"class":"TPV","device":"/dev/serial0","mode":1,"time":"1980-01-06T00:03:06.800Z","ept":0.005}
[2021-07-10T08:34:59.090314Z |   MainThread |     INFO] {"class":"TPV","device":"/dev/serial0","mode":1,"time":"1980-01-06T00:03:07.800Z","ept":0.005}
[2021-07-10T08:35:00.092557Z |   MainThread |     INFO] {"class":"TPV","device":"/dev/serial0","mode":1,"time":"1980-01-06T00:03:08.800Z","ept":0.005}
[2021-07-10T08:35:01.094985Z |   MainThread |     INFO] {"class":"TPV","device":"/dev/serial0","mode":1,"time":"1980-01-06T00:03:09.800Z","ept":0.005}
[2021-07-10T08:35:02.097083Z |   MainThread |     INFO] {"class":"TPV","device":"/dev/serial0","mode":1,"time":"1980-01-06T00:03:10.800Z","ept":0.005}
[2021-07-10T08:35:03.099333Z |   MainThread |     INFO] {"class":"TPV","device":"/dev/serial0","mode":1,"time":"1980-01-06T00:03:11.800Z","ept":0.005}
[2021-07-10T08:35:04.101602Z |   MainThread |     INFO] {"class":"TPV","device":"/dev/serial0","mode":1,"time":"1980-01-06T00:03:12.800Z","ept":0.005}
[2021-07-10T08:35:05.104006Z |   MainThread |     INFO] {"class":"TPV","device":"/dev/serial0","mode":1,"time":"1980-01-06T00:03:13.800Z","ept":0.005}
[2021-07-10T08:35:06.106408Z |   MainThread |     INFO] {"class":"TPV","device":"/dev/serial0","mode":1,"time":"1980-01-06T00:03:14.800Z","ept":0.005}
[2021-07-10T08:35:07.108782Z |   MainThread |     INFO] {"class":"TPV","device":"/dev/serial0","mode":1,"time":"1980-01-06T00:03:15.800Z","ept":0.005}
[2021-07-10T08:35:08.111160Z |   MainThread |     INFO] {"class":"TPV","device":"/dev/serial0","mode":1,"time":"1980-01-06T00:03:16.800Z","ept":0.005}
[2021-07-10T08:35:09.113519Z |   MainThread |     INFO] {"class":"TPV","device":"/dev/serial0","mode":1,"time":"1980-01-06T00:03:17.800Z","ept":0.005}
[2021-07-10T08:35:10.115868Z |   MainThread |     INFO] {"class":"TPV","device":"/dev/serial0","mode":1,"time":"1980-01-06T00:03:18.800Z","ept":0.005}
[2021-07-10T08:35:11.118182Z |   MainThread |     INFO] {"class":"TPV","device":"/dev/serial0","mode":1,"time":"1980-01-06T00:03:19.800Z","ept":0.005}
[2021-07-10T08:35:12.120567Z |   MainThread |     INFO] {"class":"TPV","device":"/dev/serial0","mode":1,"time":"1980-01-06T00:03:20.800Z","ept":0.005}
[2021-07-10T08:35:13.122890Z |   MainThread |     INFO] {"class":"TPV","device":"/dev/serial0","mode":1,"time":"1980-01-06T00:03:21.800Z","ept":0.005}
[2021-07-10T08:35:14.125178Z |   MainThread |     INFO] {"class":"TPV","device":"/dev/serial0","mode":1,"time":"1980-01-06T00:03:22.800Z","ept":0.005}
[2021-07-10T08:35:15.127486Z |   MainThread |     INFO] {"class":"TPV","device":"/dev/serial0","mode":1,"time":"1980-01-06T00:03:23.800Z","ept":0.005}
[2021-07-10T08:35:16.129754Z |   MainThread |     INFO] {"class":"TPV","device":"/dev/serial0","mode":1,"time":"1980-01-06T00:03:24.800Z","ept":0.005}
[2021-07-10T08:35:17.131662Z |   MainThread |     INFO] {"class":"TPV","device":"/dev/serial0","mode":1,"time":"1980-01-06T00:03:25.800Z","ept":0.005}
[2021-07-10T08:35:18.133240Z |   MainThread |     INFO] {"class":"TPV","device":"/dev/serial0","mode":1,"time":"1980-01-06T00:03:26.800Z","ept":0.005}
[2021-07-10T08:35:19.134927Z |   MainThread |     INFO] {"class":"TPV","device":"/dev/serial0","mode":1,"time":"1980-01-06T00:03:27.800Z","ept":0.005}
[2021-07-10T08:35:20.136679Z |   MainThread |     INFO] {"class":"TPV","device":"/dev/serial0","mode":1,"time":"1980-01-06T00:03:28.800Z","ept":0.005}
[2021-07-10T08:35:21.138830Z |   MainThread |     INFO] {"class":"TPV","device":"/dev/serial0","mode":1,"time":"1980-01-06T00:03:29.800Z","ept":0.005}
[2021-07-10T08:35:22.141121Z |   MainThread |     INFO] {"class":"TPV","device":"/dev/serial0","mode":1,"time":"1980-01-06T00:03:30.800Z","ept":0.005}
[2021-07-10T08:35:23.143426Z |   MainThread |     INFO] {"class":"TPV","device":"/dev/serial0","mode":1,"time":"1980-01-06T00:03:31.800Z","ept":0.005}
[2021-07-10T08:35:24.145822Z |   MainThread |     INFO] {"class":"TPV","device":"/dev/serial0","mode":1,"time":"1980-01-06T00:03:32.800Z","ept":0.005}
[2021-07-10T08:35:25.148110Z |   MainThread |     INFO] {"class":"TPV","device":"/dev/serial0","mode":1,"time":"1980-01-06T00:03:33.800Z","ept":0.005}
[2021-07-10T08:35:26.150264Z |   MainThread |     INFO] {"class":"TPV","device":"/dev/serial0","mode":1,"time":"1980-01-06T00:03:34.800Z","ept":0.005}
[2021-07-10T08:35:27.152540Z |   MainThread |     INFO] {"class":"TPV","device":"/dev/serial0","mode":1,"time":"1980-01-06T00:03:35.800Z","ept":0.005}
[2021-07-10T08:35:28.154723Z |   MainThread |     INFO] {"class":"TPV","device":"/dev/serial0","mode":1,"time":"1980-01-06T00:03:36.800Z","ept":0.005}
[2021-07-10T08:35:29.157051Z |   MainThread |     INFO] {"class":"TPV","device":"/dev/serial0","mode":1,"time":"1980-01-06T00:03:37.800Z","ept":0.005}
[2021-07-10T08:35:30.159401Z |   MainThread |     INFO] {"class":"TPV","device":"/dev/serial0","mode":1,"time":"1980-01-06T00:03:38.800Z","ept":0.005}
[2021-07-10T08:35:31.161761Z |   MainThread |     INFO] {"class":"TPV","device":"/dev/serial0","mode":1,"time":"1980-01-06T00:03:39.800Z","ept":0.005}
[2021-07-10T08:35:32.163889Z |   MainThread |     INFO] {"class":"TPV","device":"/dev/serial0","mode":1,"time":"1980-01-06T00:03:40.800Z","ept":0.005}
[2021-07-10T08:35:33.166192Z |   MainThread |     INFO] {"class":"TPV","device":"/dev/serial0","mode":1,"time":"1980-01-06T00:03:41.800Z","ept":0.005}
[2021-07-10T08:35:34.168579Z |   MainThread |     INFO] {"class":"TPV","device":"/dev/serial0","mode":1,"time":"1980-01-06T00:03:42.800Z","ept":0.005}
[2021-07-10T08:35:35.170964Z |   MainThread |     INFO] {"class":"TPV","device":"/dev/serial0","mode":1,"time":"1980-01-06T00:03:43.800Z","ept":0.005}
[2021-07-10T08:35:36.173245Z |   MainThread |     INFO] {"class":"TPV","device":"/dev/serial0","mode":1,"time":"1980-01-06T00:03:44.800Z","ept":0.005}
[2021-07-10T08:35:37.175015Z |   MainThread |     INFO] {"class":"TPV","device":"/dev/serial0","mode":1,"time":"1980-01-06T00:03:45.800Z","ept":0.005}
[2021-07-10T08:35:38.176424Z |   MainThread |     INFO] {"class":"TPV","device":"/dev/serial0","mode":1,"time":"1980-01-06T00:03:46.800Z","ept":0.005}
[2021-07-10T08:35:39.177837Z |   MainThread |     INFO] {"class":"TPV","device":"/dev/serial0","mode":1,"time":"1980-01-06T00:03:47.800Z","ept":0.005}
[2021-07-10T08:35:40.179536Z |   MainThread |     INFO] {"class":"TPV","device":"/dev/serial0","mode":1,"time":"1980-01-06T00:03:48.800Z","ept":0.005}
[2021-07-10T08:35:41.181046Z |   MainThread |     INFO] {"class":"TPV","device":"/dev/serial0","mode":1,"time":"1980-01-06T00:03:49.800Z","ept":0.005}
[2021-07-10T08:35:42.182800Z |   MainThread |     INFO] {"class":"TPV","device":"/dev/serial0","mode":1,"time":"1980-01-06T00:03:50.800Z","ept":0.005}
[2021-07-10T08:35:43.184375Z |   MainThread |     INFO] {"class":"TPV","device":"/dev/serial0","mode":1,"time":"1980-01-06T00:03:51.800Z","ept":0.005}
[2021-07-10T08:35:44.186753Z |   MainThread |     INFO] {"class":"TPV","device":"/dev/serial0","mode":1,"time":"1980-01-06T00:03:52.800Z","ept":0.005}
[2021-07-10T08:35:45.188968Z |   MainThread |     INFO] {"class":"TPV","device":"/dev/serial0","mode":1,"time":"1980-01-06T00:03:53.800Z","ept":0.005}
[2021-07-10T08:35:46.191100Z |   MainThread |     INFO] {"class":"TPV","device":"/dev/serial0","mode":1,"time":"1980-01-06T00:03:54.800Z","ept":0.005}
[2021-07-10T08:35:47.192797Z |   MainThread |     INFO] {"class":"TPV","device":"/dev/serial0","mode":1,"time":"1980-01-06T00:03:55.800Z","ept":0.005}
[2021-07-10T08:35:48.194353Z |   MainThread |     INFO] {"class":"TPV","device":"/dev/serial0","mode":1,"time":"1980-01-06T00:03:56.800Z","ept":0.005}
[2021-07-10T08:35:49.196630Z |   MainThread |     INFO] {"class":"TPV","device":"/dev/serial0","mode":1,"time":"1980-01-06T00:03:57.800Z","ept":0.005}
[2021-07-10T08:35:50.198957Z |   MainThread |     INFO] {"class":"TPV","device":"/dev/serial0","mode":1,"time":"1980-01-06T00:03:58.800Z","ept":0.005}
[2021-07-10T08:35:51.201351Z |   MainThread |     INFO] {"class":"TPV","device":"/dev/serial0","mode":1,"time":"1980-01-06T00:03:59.800Z","ept":0.005}
[2021-07-10T08:35:52.203736Z |   MainThread |     INFO] {"class":"TPV","device":"/dev/serial0","mode":1,"time":"1980-01-06T00:04:00.800Z","ept":0.005}
[2021-07-10T08:35:53.206148Z |   MainThread |     INFO] {"class":"TPV","device":"/dev/serial0","mode":1,"time":"1980-01-06T00:04:01.800Z","ept":0.005}
[2021-07-10T08:35:54.208567Z |   MainThread |     INFO] {"class":"TPV","device":"/dev/serial0","mode":1,"time":"1980-01-06T00:04:02.800Z","ept":0.005}
[2021-07-10T08:35:55.210927Z |   MainThread |     INFO] {"class":"TPV","device":"/dev/serial0","mode":1,"time":"1980-01-06T00:04:03.800Z","ept":0.005}
[2021-07-10T08:35:56.213284Z |   MainThread |     INFO] {"class":"TPV","device":"/dev/serial0","mode":1,"time":"1980-01-06T00:04:04.800Z","ept":0.005}
[2021-07-10T08:35:57.215606Z |   MainThread |     INFO] {"class":"TPV","device":"/dev/serial0","mode":1,"time":"1980-01-06T00:04:05.800Z","ept":0.005}
[2021-07-10T08:35:58.217975Z |   MainThread |     INFO] {"class":"TPV","device":"/dev/serial0","mode":1,"time":"1980-01-06T00:04:06.800Z","ept":0.005}
[2021-07-10T08:35:59.220374Z |   MainThread |     INFO] {"class":"TPV","device":"/dev/serial0","mode":1,"time":"1980-01-06T00:04:07.800Z","ept":0.005}
[2021-07-10T08:36:00.022484Z |   MainThread |     INFO] {"class":"TPV","device":"/dev/serial0","mode":1,"time":"1980-01-06T00:04:08.800Z","ept":0.005}
[2021-07-10T08:36:01.024837Z |   MainThread |     INFO] {"class":"TPV","device":"/dev/serial0","mode":1,"time":"1980-01-06T00:04:09.800Z","ept":0.005}
[2021-07-10T08:36:02.027194Z |   MainThread |     INFO] {"class":"TPV","device":"/dev/serial0","mode":1,"time":"1980-01-06T00:04:10.800Z","ept":0.005}
[2021-07-10T08:36:03.029492Z |   MainThread |     INFO] {"class":"TPV","device":"/dev/serial0","mode":1,"time":"1980-01-06T00:04:11.800Z","ept":0.005}
[2021-07-10T08:36:04.031898Z |   MainThread |     INFO] {"class":"TPV","device":"/dev/serial0","mode":1,"time":"1980-01-06T00:04:12.800Z","ept":0.005}
[2021-07-10T08:36:05.034284Z |   MainThread |     INFO] {"class":"TPV","device":"/dev/serial0","mode":1,"time":"1980-01-06T00:04:13.800Z","ept":0.005}
[2021-07-10T08:36:06.036640Z |   MainThread |     INFO] {"class":"TPV","device":"/dev/serial0","mode":1,"time":"1980-01-06T00:04:14.800Z","ept":0.005}
[2021-07-10T08:36:07.038909Z |   MainThread |     INFO] {"class":"TPV","device":"/dev/serial0","mode":1,"time":"1980-01-06T00:04:15.800Z","ept":0.005}
[2021-07-10T08:36:08.040985Z |   MainThread |     INFO] {"class":"TPV","device":"/dev/serial0","mode":1,"time":"1980-01-06T00:04:16.800Z","ept":0.005}
[2021-07-10T08:36:09.043137Z |   MainThread |     INFO] {"class":"TPV","device":"/dev/serial0","mode":1,"time":"1980-01-06T00:04:17.800Z","ept":0.005}
[2021-07-10T08:36:10.045377Z |   MainThread |     INFO] {"class":"TPV","device":"/dev/serial0","mode":1,"time":"1980-01-06T00:04:18.800Z","ept":0.005}
[2021-07-10T08:36:11.047679Z |   MainThread |     INFO] {"class":"TPV","device":"/dev/serial0","mode":1,"time":"1980-01-06T00:04:19.800Z","ept":0.005}
[2021-07-10T08:36:12.049607Z |   MainThread |     INFO] {"class":"TPV","device":"/dev/serial0","mode":1,"time":"1980-01-06T00:04:20.800Z","ept":0.005}
[2021-07-10T08:36:13.051769Z |   MainThread |     INFO] {"class":"TPV","device":"/dev/serial0","mode":1,"time":"1980-01-06T00:04:21.800Z","ept":0.005}
[2021-07-10T08:36:14.053956Z |   MainThread |     INFO] {"class":"TPV","device":"/dev/serial0","mode":1,"time":"1980-01-06T00:04:22.800Z","ept":0.005}
[2021-07-10T08:36:15.056101Z |   MainThread |     INFO] {"class":"TPV","device":"/dev/serial0","mode":1,"time":"1980-01-06T00:04:23.800Z","ept":0.005}
[2021-07-10T08:36:16.057907Z |   MainThread |     INFO] {"class":"TPV","device":"/dev/serial0","mode":1,"time":"1980-01-06T00:04:24.800Z","ept":0.005}
[2021-07-10T08:36:17.060076Z |   MainThread |     INFO] {"class":"TPV","device":"/dev/serial0","mode":1,"time":"1980-01-06T00:04:25.800Z","ept":0.005}
[2021-07-10T08:36:18.062310Z |   MainThread |     INFO] {"class":"TPV","device":"/dev/serial0","mode":1,"time":"1980-01-06T00:04:26.800Z","ept":0.005}
[2021-07-10T08:36:19.064812Z |   MainThread |     INFO] {"class":"TPV","device":"/dev/serial0","mode":1,"time":"1980-01-06T00:04:27.800Z","ept":0.005}
[2021-07-10T08:36:20.067151Z |   MainThread |     INFO] {"class":"TPV","device":"/dev/serial0","mode":1,"time":"1980-01-06T00:04:28.800Z","ept":0.005}
[2021-07-10T08:36:21.069456Z |   MainThread |     INFO] {"class":"TPV","device":"/dev/serial0","mode":1,"time":"1980-01-06T00:04:29.800Z","ept":0.005}
[2021-07-10T08:36:22.071404Z |   MainThread |     INFO] {"class":"TPV","device":"/dev/serial0","mode":1,"time":"1980-01-06T00:04:30.800Z","ept":0.005}
[2021-07-10T08:36:23.073332Z |   MainThread |     INFO] {"class":"TPV","device":"/dev/serial0","mode":1,"time":"1980-01-06T00:04:31.800Z","ept":0.005}
[2021-07-10T08:36:24.075621Z |   MainThread |     INFO] {"class":"TPV","device":"/dev/serial0","mode":1,"time":"1980-01-06T00:04:32.800Z","ept":0.005}
[2021-07-10T08:36:25.077948Z |   MainThread |     INFO] {"class":"TPV","device":"/dev/serial0","mode":1,"time":"1980-01-06T00:04:33.800Z","ept":0.005}
[2021-07-10T08:36:26.080271Z |   MainThread |     INFO] {"class":"TPV","device":"/dev/serial0","mode":1,"time":"1980-01-06T00:04:34.800Z","ept":0.005}
[2021-07-10T08:36:27.082606Z |   MainThread |     INFO] {"class":"TPV","device":"/dev/serial0","mode":1,"time":"1980-01-06T00:04:35.800Z","ept":0.005}
[2021-07-10T08:36:28.085052Z |   MainThread |     INFO] {"class":"TPV","device":"/dev/serial0","mode":1,"time":"1980-01-06T00:04:36.800Z","ept":0.005}
[2021-07-10T08:36:29.087468Z |   MainThread |     INFO] {"class":"TPV","device":"/dev/serial0","mode":1,"time":"1980-01-06T00:04:37.800Z","ept":0.005}
[2021-07-10T08:36:30.089852Z |   MainThread |     INFO] {"class":"TPV","device":"/dev/serial0","mode":1,"time":"1980-01-06T00:04:38.800Z","ept":0.005}
[2021-07-10T08:36:31.092140Z |   MainThread |     INFO] {"class":"TPV","device":"/dev/serial0","mode":1,"time":"1980-01-06T00:04:39.800Z","ept":0.005}
[2021-07-10T08:36:32.094093Z |   MainThread |     INFO] {"class":"TPV","device":"/dev/serial0","mode":1,"time":"1980-01-06T00:04:40.800Z","ept":0.005}
[2021-07-10T08:36:33.096355Z |   MainThread |     INFO] {"class":"TPV","device":"/dev/serial0","mode":1,"time":"1980-01-06T00:04:41.800Z","ept":0.005}
[2021-07-10T08:36:34.098658Z |   MainThread |     INFO] {"class":"TPV","device":"/dev/serial0","mode":1,"time":"1980-01-06T00:04:42.800Z","ept":0.005}
[2021-07-10T08:36:35.100874Z |   MainThread |     INFO] {"class":"TPV","device":"/dev/serial0","mode":1,"time":"1980-01-06T00:04:43.800Z","ept":0.005}
[2021-07-10T08:36:36.103234Z |   MainThread |     INFO] {"class":"TPV","device":"/dev/serial0","mode":1,"time":"1980-01-06T00:04:44.800Z","ept":0.005}
[2021-07-10T08:36:37.105211Z |   MainThread |     INFO] {"class":"TPV","device":"/dev/serial0","mode":1,"time":"1980-01-06T00:04:45.800Z","ept":0.005}
[2021-07-10T08:36:38.107565Z |   MainThread |     INFO] {"class":"TPV","device":"/dev/serial0","mode":1,"time":"1980-01-06T00:04:46.800Z","ept":0.005}
[2021-07-10T08:36:39.109854Z |   MainThread |     INFO] {"class":"TPV","device":"/dev/serial0","mode":1,"time":"1980-01-06T00:04:47.800Z","ept":0.005}
[2021-07-10T08:36:40.112275Z |   MainThread |     INFO] {"class":"TPV","device":"/dev/serial0","mode":1,"time":"1980-01-06T00:04:48.800Z","ept":0.005}
[2021-07-10T08:36:41.114816Z |   MainThread |     INFO] {"class":"TPV","device":"/dev/serial0","mode":1,"time":"1980-01-06T00:04:49.800Z","ept":0.005}
[2021-07-10T08:36:42.116737Z |   MainThread |     INFO] {"class":"TPV","device":"/dev/serial0","mode":1,"time":"1980-01-06T00:04:50.800Z","ept":0.005}
[2021-07-10T08:36:43.119108Z |   MainThread |     INFO] {"class":"TPV","device":"/dev/serial0","mode":1,"time":"1980-01-06T00:04:51.800Z","ept":0.005}
[2021-07-10T08:36:44.121475Z |   MainThread |     INFO] {"class":"TPV","device":"/dev/serial0","mode":1,"time":"1980-01-06T00:04:52.800Z","ept":0.005}
[2021-07-10T08:36:45.123825Z |   MainThread |     INFO] {"class":"TPV","device":"/dev/serial0","mode":1,"time":"1980-01-06T00:04:53.800Z","ept":0.005}
[2021-07-10T08:36:46.126173Z |   MainThread |     INFO] {"class":"TPV","device":"/dev/serial0","mode":1,"time":"1980-01-06T00:04:54.800Z","ept":0.005}
[2021-07-10T08:36:47.128501Z |   MainThread |     INFO] {"class":"TPV","device":"/dev/serial0","mode":1,"time":"1980-01-06T00:04:55.800Z","ept":0.005}
[2021-07-10T08:36:48.130821Z |   MainThread |     INFO] {"class":"TPV","device":"/dev/serial0","mode":1,"time":"1980-01-06T00:04:56.800Z","ept":0.005}
[2021-07-10T08:36:49.133142Z |   MainThread |     INFO] {"class":"TPV","device":"/dev/serial0","mode":1,"time":"1980-01-06T00:04:57.800Z","ept":0.005}
[2021-07-10T08:36:50.135158Z |   MainThread |     INFO] {"class":"TPV","device":"/dev/serial0","mode":1,"time":"1980-01-06T00:04:58.800Z","ept":0.005}
[2021-07-10T08:36:51.136532Z |   MainThread |     INFO] {"class":"TPV","device":"/dev/serial0","mode":1,"time":"1980-01-06T00:04:59.800Z","ept":0.005}
[2021-07-10T08:36:52.138079Z |   MainThread |     INFO] {"class":"TPV","device":"/dev/serial0","mode":1,"time":"1980-01-06T00:05:00.800Z","ept":0.005}
[2021-07-10T08:36:53.139684Z |   MainThread |     INFO] {"class":"TPV","device":"/dev/serial0","mode":1,"time":"1980-01-06T00:05:01.800Z","ept":0.005}
[2021-07-10T08:36:54.141532Z |   MainThread |     INFO] {"class":"TPV","device":"/dev/serial0","mode":1,"time":"1980-01-06T00:05:02.800Z","ept":0.005}
[2021-07-10T08:36:55.143251Z |   MainThread |     INFO] {"class":"TPV","device":"/dev/serial0","mode":1,"time":"1980-01-06T00:05:03.800Z","ept":0.005}
[2021-07-10T08:36:56.145659Z |   MainThread |     INFO] {"class":"TPV","device":"/dev/serial0","mode":1,"time":"1980-01-06T00:05:04.800Z","ept":0.005}
[2021-07-10T08:36:57.147572Z |   MainThread |     INFO] {"class":"TPV","device":"/dev/serial0","mode":1,"time":"1980-01-06T00:05:05.800Z","ept":0.005}
[2021-07-10T08:36:58.149873Z |   MainThread |     INFO] {"class":"TPV","device":"/dev/serial0","mode":1,"time":"1980-01-06T00:05:06.800Z","ept":0.005}
[2021-07-10T08:36:59.152298Z |   MainThread |     INFO] {"class":"TPV","device":"/dev/serial0","mode":1,"time":"1980-01-06T00:05:07.800Z","ept":0.005}
[2021-07-10T08:37:00.154738Z |   MainThread |     INFO] {"class":"TPV","device":"/dev/serial0","mode":1,"time":"1980-01-06T00:05:08.800Z","ept":0.005}
[2021-07-10T08:37:01.157190Z |   MainThread |     INFO] {"class":"TPV","device":"/dev/serial0","mode":1,"time":"1980-01-06T00:05:09.800Z","ept":0.005}
[2021-07-10T08:37:02.159478Z |   MainThread |     INFO] {"class":"TPV","device":"/dev/serial0","mode":1,"time":"1980-01-06T00:05:10.800Z","ept":0.005}
[2021-07-10T08:37:03.161753Z |   MainThread |     INFO] {"class":"TPV","device":"/dev/serial0","mode":1,"time":"1980-01-06T00:05:11.800Z","ept":0.005}
[2021-07-10T08:37:04.164095Z |   MainThread |     INFO] {"class":"TPV","device":"/dev/serial0","mode":1,"time":"1980-01-06T00:05:12.800Z","ept":0.005}
[2021-07-10T08:37:05.166510Z |   MainThread |     INFO] {"class":"TPV","device":"/dev/serial0","mode":1,"time":"1980-01-06T00:05:13.800Z","ept":0.005}
[2021-07-10T08:37:06.168865Z |   MainThread |     INFO] {"class":"TPV","device":"/dev/serial0","mode":1,"time":"1980-01-06T00:05:14.800Z","ept":0.005}
[2021-07-10T08:37:07.171220Z |   MainThread |     INFO] {"class":"TPV","device":"/dev/serial0","mode":1,"time":"1980-01-06T00:05:15.800Z","ept":0.005}
[2021-07-10T08:37:08.173635Z |   MainThread |     INFO] {"class":"TPV","device":"/dev/serial0","mode":1,"time":"1980-01-06T00:05:16.800Z","ept":0.005}
[2021-07-10T08:37:09.175849Z |   MainThread |     INFO] {"class":"TPV","device":"/dev/serial0","mode":1,"time":"1980-01-06T00:05:17.800Z","ept":0.005}
[2021-07-10T08:37:10.178071Z |   MainThread |     INFO] {"class":"TPV","device":"/dev/serial0","mode":1,"time":"1980-01-06T00:05:18.800Z","ept":0.005}
[2021-07-10T08:37:11.180380Z |   MainThread |     INFO] {"class":"TPV","device":"/dev/serial0","mode":1,"time":"1980-01-06T00:05:19.800Z","ept":0.005}
[2021-07-10T08:37:12.182286Z |   MainThread |     INFO] {"class":"TPV","device":"/dev/serial0","mode":1,"time":"1980-01-06T00:05:20.800Z","ept":0.005}
[2021-07-10T08:37:13.184365Z |   MainThread |     INFO] {"class":"TPV","device":"/dev/serial0","mode":1,"time":"1980-01-06T00:05:21.800Z","ept":0.005}
[2021-07-10T08:37:14.186521Z |   MainThread |     INFO] {"class":"TPV","device":"/dev/serial0","mode":1,"time":"1980-01-06T00:05:22.800Z","ept":0.005}
[2021-07-10T08:37:15.188709Z |   MainThread |     INFO] {"class":"TPV","device":"/dev/serial0","mode":1,"time":"1980-01-06T00:05:23.800Z","ept":0.005}
[2021-07-10T08:37:16.191061Z |   MainThread |     INFO] {"class":"TPV","device":"/dev/serial0","mode":1,"time":"1980-01-06T00:05:24.800Z","ept":0.005}
[2021-07-10T08:37:17.193051Z |   MainThread |     INFO] {"class":"TPV","device":"/dev/serial0","mode":1,"time":"1980-01-06T00:05:25.800Z","ept":0.005}
[2021-07-10T08:37:18.195281Z |   MainThread |     INFO] {"class":"TPV","device":"/dev/serial0","mode":1,"time":"1980-01-06T00:05:26.800Z","ept":0.005}
[2021-07-10T08:37:19.197599Z |   MainThread |     INFO] {"class":"TPV","device":"/dev/serial0","mode":1,"time":"1980-01-06T00:05:27.800Z","ept":0.005}
[2021-07-10T08:37:20.199923Z |   MainThread |     INFO] {"class":"TPV","device":"/dev/serial0","mode":1,"time":"1980-01-06T00:05:28.800Z","ept":0.005}
[2021-07-10T08:37:21.202221Z |   MainThread |     INFO] {"class":"TPV","device":"/dev/serial0","mode":1,"time":"1980-01-06T00:05:29.800Z","ept":0.005}
[2021-07-10T08:37:22.205392Z |   MainThread |     INFO] {"class":"TPV","device":"/dev/serial0","mode":1,"time":"1980-01-06T00:05:30.800Z","ept":0.005}
[2021-07-10T08:37:23.206763Z |   MainThread |     INFO] {"class":"TPV","device":"/dev/serial0","mode":1,"time":"1980-01-06T00:05:31.800Z","ept":0.005}
[2021-07-10T08:37:24.208253Z |   MainThread |     INFO] {"class":"TPV","device":"/dev/serial0","mode":1,"time":"1980-01-06T00:05:32.800Z","ept":0.005}
[2021-07-10T08:37:25.209841Z |   MainThread |     INFO] {"class":"TPV","device":"/dev/serial0","mode":1,"time":"1980-01-06T00:05:33.800Z","ept":0.005}
[2021-07-10T08:37:26.211347Z |   MainThread |     INFO] {"class":"TPV","device":"/dev/serial0","mode":1,"time":"1980-01-06T00:05:34.800Z","ept":0.005}
[2021-07-10T08:37:27.213429Z |   MainThread |     INFO] {"class":"TPV","device":"/dev/serial0","mode":1,"time":"1980-01-06T00:05:35.800Z","ept":0.005}
[2021-07-10T08:37:28.215154Z |   MainThread |     INFO] {"class":"TPV","device":"/dev/serial0","mode":1,"time":"1980-01-06T00:05:36.800Z","ept":0.005}
[2021-07-10T08:37:29.216686Z |   MainThread |     INFO] {"class":"TPV","device":"/dev/serial0","mode":1,"time":"1980-01-06T00:05:37.800Z","ept":0.005}
[2021-07-10T08:37:30.218997Z |   MainThread |     INFO] {"class":"TPV","device":"/dev/serial0","mode":1,"time":"1980-01-06T00:05:38.800Z","ept":0.005}
[2021-07-10T08:37:31.221148Z |   MainThread |     INFO] {"class":"TPV","device":"/dev/serial0","mode":1,"time":"1980-01-06T00:05:39.800Z","ept":0.005}
[2021-07-10T08:37:32.023113Z |   MainThread |     INFO] {"class":"TPV","device":"/dev/serial0","mode":1,"time":"1980-01-06T00:05:40.800Z","ept":0.005}
[2021-07-10T08:37:33.025460Z |   MainThread |     INFO] {"class":"TPV","device":"/dev/serial0","mode":1,"time":"1980-01-06T00:05:41.800Z","ept":0.005}
[2021-07-10T08:37:34.228066Z |   MainThread |     INFO] {"class":"TPV","device":"/dev/serial0","mode":1,"time":"1980-01-06T00:05:42.800Z","ept":0.005}
[2021-07-10T08:37:35.030150Z |   MainThread |     INFO] {"class":"TPV","device":"/dev/serial0","mode":1,"time":"1980-01-06T00:05:43.800Z","ept":0.005}
[2021-07-10T08:37:36.032535Z |   MainThread |     INFO] {"class":"TPV","device":"/dev/serial0","mode":1,"time":"1980-01-06T00:05:44.800Z","ept":0.005}
[2021-07-10T08:37:37.034972Z |   MainThread |     INFO] {"class":"TPV","device":"/dev/serial0","mode":1,"time":"1980-01-06T00:05:45.800Z","ept":0.005}
[2021-07-10T08:37:38.037504Z |   MainThread |     INFO] {"class":"TPV","device":"/dev/serial0","mode":1,"time":"1980-01-06T00:05:46.800Z","ept":0.005}
[2021-07-10T08:37:39.039953Z |   MainThread |     INFO] {"class":"TPV","device":"/dev/serial0","mode":1,"time":"1980-01-06T00:05:47.800Z","ept":0.005}
[2021-07-10T08:37:40.042377Z |   MainThread |     INFO] {"class":"TPV","device":"/dev/serial0","mode":1,"time":"1980-01-06T00:05:48.800Z","ept":0.005}
[2021-07-10T08:37:41.044824Z |   MainThread |     INFO] {"class":"TPV","device":"/dev/serial0","mode":1,"time":"1980-01-06T00:05:49.800Z","ept":0.005}
[2021-07-10T08:37:42.046780Z |   MainThread |     INFO] {"class":"TPV","device":"/dev/serial0","mode":1,"time":"1980-01-06T00:05:50.800Z","ept":0.005}
[2021-07-10T08:37:43.049135Z |   MainThread |     INFO] {"class":"TPV","device":"/dev/serial0","mode":1,"time":"1980-01-06T00:05:51.800Z","ept":0.005}
[2021-07-10T08:37:44.051525Z |   MainThread |     INFO] {"class":"TPV","device":"/dev/serial0","mode":1,"time":"1980-01-06T00:05:52.800Z","ept":0.005}
[2021-07-10T08:37:45.053820Z |   MainThread |     INFO] {"class":"TPV","device":"/dev/serial0","mode":1,"time":"1980-01-06T00:05:53.800Z","ept":0.005}
[2021-07-10T08:37:46.056126Z |   MainThread |     INFO] {"class":"TPV","device":"/dev/serial0","mode":1,"time":"1980-01-06T00:05:54.800Z","ept":0.005}
[2021-07-10T08:37:47.058088Z |   MainThread |     INFO] {"class":"TPV","device":"/dev/serial0","mode":1,"time":"1980-01-06T00:05:55.800Z","ept":0.005}
[2021-07-10T08:37:48.059610Z |   MainThread |     INFO] {"class":"TPV","device":"/dev/serial0","mode":1,"time":"1980-01-06T00:05:56.800Z","ept":0.005}
[2021-07-10T08:37:49.061156Z |   MainThread |     INFO] {"class":"TPV","device":"/dev/serial0","mode":1,"time":"1980-01-06T00:05:57.800Z","ept":0.005}
[2021-07-10T08:37:50.063361Z |   MainThread |     INFO] {"class":"TPV","device":"/dev/serial0","mode":1,"time":"1980-01-06T00:05:58.800Z","ept":0.005}
[2021-07-10T08:37:51.065654Z |   MainThread |     INFO] {"class":"TPV","device":"/dev/serial0","mode":1,"time":"1980-01-06T00:05:59.800Z","ept":0.005}
[2021-07-10T08:37:52.068013Z |   MainThread |     INFO] {"class":"TPV","device":"/dev/serial0","mode":1,"time":"1980-01-06T00:06:00.800Z","ept":0.005}
[2021-07-10T08:37:53.070368Z |   MainThread |     INFO] {"class":"TPV","device":"/dev/serial0","mode":1,"time":"1980-01-06T00:06:01.800Z","ept":0.005}
[2021-07-10T08:37:54.072795Z |   MainThread |     INFO] {"class":"TPV","device":"/dev/serial0","mode":1,"time":"1980-01-06T00:06:02.800Z","ept":0.005}
[2021-07-10T08:37:55.075347Z |   MainThread |     INFO] {"class":"TPV","device":"/dev/serial0","mode":1,"time":"1980-01-06T00:06:03.800Z","ept":0.005}
[2021-07-10T08:37:56.077730Z |   MainThread |     INFO] {"class":"TPV","device":"/dev/serial0","mode":1,"time":"1980-01-06T00:06:04.800Z","ept":0.005}
[2021-07-10T08:37:57.080083Z |   MainThread |     INFO] {"class":"TPV","device":"/dev/serial0","mode":1,"time":"1980-01-06T00:06:05.800Z","ept":0.005}
[2021-07-10T08:37:58.082209Z |   MainThread |     INFO] {"class":"TPV","device":"/dev/serial0","mode":1,"time":"1980-01-06T00:06:06.800Z","ept":0.005}
[2021-07-10T08:37:59.084447Z |   MainThread |     INFO] {"class":"TPV","device":"/dev/serial0","mode":1,"time":"1980-01-06T00:06:07.800Z","ept":0.005}
[2021-07-10T08:38:00.086824Z |   MainThread |     INFO] {"class":"TPV","device":"/dev/serial0","mode":1,"time":"1980-01-06T00:06:08.800Z","ept":0.005}
[2021-07-10T08:38:01.089214Z |   MainThread |     INFO] {"class":"TPV","device":"/dev/serial0","mode":1,"time":"1980-01-06T00:06:09.800Z","ept":0.005}
[2021-07-10T08:38:02.091481Z |   MainThread |     INFO] {"class":"TPV","device":"/dev/serial0","mode":1,"time":"1980-01-06T00:06:10.800Z","ept":0.005}
[2021-07-10T08:38:03.093737Z |   MainThread |     INFO] {"class":"TPV","device":"/dev/serial0","mode":1,"time":"1980-01-06T00:06:11.800Z","ept":0.005}
[2021-07-10T08:38:04.096204Z |   MainThread |     INFO] {"class":"TPV","device":"/dev/serial0","mode":1,"time":"1980-01-06T00:06:12.800Z","ept":0.005}
[2021-07-10T08:38:05.098498Z |   MainThread |     INFO] {"class":"TPV","device":"/dev/serial0","mode":1,"time":"1980-01-06T00:06:13.800Z","ept":0.005}
[2021-07-10T08:38:06.100628Z |   MainThread |     INFO] {"class":"TPV","device":"/dev/serial0","mode":1,"time":"1980-01-06T00:06:14.800Z","ept":0.005}
[2021-07-10T08:38:07.102840Z |   MainThread |     INFO] {"class":"TPV","device":"/dev/serial0","mode":1,"time":"1980-01-06T00:06:15.800Z","ept":0.005}
[2021-07-10T08:38:08.105075Z |   MainThread |     INFO] {"class":"TPV","device":"/dev/serial0","mode":1,"time":"1980-01-06T00:06:16.800Z","ept":0.005}
[2021-07-10T08:38:09.107419Z |   MainThread |     INFO] {"class":"TPV","device":"/dev/serial0","mode":1,"time":"1980-01-06T00:06:17.800Z","ept":0.005}
[2021-07-10T08:38:10.109825Z |   MainThread |     INFO] {"class":"TPV","device":"/dev/serial0","mode":1,"time":"1980-01-06T00:06:18.800Z","ept":0.005}
[2021-07-10T08:38:11.112164Z |   MainThread |     INFO] {"class":"TPV","device":"/dev/serial0","mode":1,"time":"1980-01-06T00:06:19.800Z","ept":0.005}
[2021-07-10T08:38:12.114591Z |   MainThread |     INFO] {"class":"TPV","device":"/dev/serial0","mode":1,"time":"1980-01-06T00:06:20.800Z","ept":0.005}
[2021-07-10T08:38:13.117015Z |   MainThread |     INFO] {"class":"TPV","device":"/dev/serial0","mode":1,"time":"1980-01-06T00:06:21.800Z","ept":0.005}
[2021-07-10T08:38:14.119441Z |   MainThread |     INFO] {"class":"TPV","device":"/dev/serial0","mode":1,"time":"1980-01-06T00:06:22.800Z","ept":0.005}
[2021-07-10T08:38:15.121825Z |   MainThread |     INFO] {"class":"TPV","device":"/dev/serial0","mode":1,"time":"1980-01-06T00:06:23.800Z","ept":0.005}
[2021-07-10T08:38:16.124191Z |   MainThread |     INFO] {"class":"TPV","device":"/dev/serial0","mode":1,"time":"1980-01-06T00:06:24.800Z","ept":0.005}
[2021-07-10T08:38:17.126649Z |   MainThread |     INFO] {"class":"TPV","device":"/dev/serial0","mode":1,"time":"1980-01-06T00:06:25.800Z","ept":0.005}
[2021-07-10T08:38:18.129043Z |   MainThread |     INFO] {"class":"TPV","device":"/dev/serial0","mode":1,"time":"1980-01-06T00:06:26.800Z","ept":0.005}
[2021-07-10T08:38:19.131305Z |   MainThread |     INFO] {"class":"TPV","device":"/dev/serial0","mode":1,"time":"1980-01-06T00:06:27.800Z","ept":0.005}
[2021-07-10T08:38:20.133616Z |   MainThread |     INFO] {"class":"TPV","device":"/dev/serial0","mode":1,"time":"1980-01-06T00:06:28.800Z","ept":0.005}
[2021-07-10T08:38:21.135946Z |   MainThread |     INFO] {"class":"TPV","device":"/dev/serial0","mode":1,"time":"1980-01-06T00:06:29.800Z","ept":0.005}
[2021-07-10T08:38:22.138366Z |   MainThread |     INFO] {"class":"TPV","device":"/dev/serial0","mode":1,"time":"1980-01-06T00:06:30.800Z","ept":0.005}
[2021-07-10T08:38:23.140701Z |   MainThread |     INFO] {"class":"TPV","device":"/dev/serial0","mode":1,"time":"1980-01-06T00:06:31.800Z","ept":0.005}
[2021-07-10T08:38:24.143019Z |   MainThread |     INFO] {"class":"TPV","device":"/dev/serial0","mode":1,"time":"1980-01-06T00:06:32.800Z","ept":0.005}
[2021-07-10T08:38:25.145359Z |   MainThread |     INFO] {"class":"TPV","device":"/dev/serial0","mode":1,"time":"1980-01-06T00:06:33.800Z","ept":0.005}
[2021-07-10T08:38:26.147733Z |   MainThread |     INFO] {"class":"TPV","device":"/dev/serial0","mode":1,"time":"1980-01-06T00:06:34.800Z","ept":0.005}
[2021-07-10T08:38:27.150057Z |   MainThread |     INFO] {"class":"TPV","device":"/dev/serial0","mode":1,"time":"1980-01-06T00:06:35.800Z","ept":0.005}
[2021-07-10T08:38:28.152354Z |   MainThread |     INFO] {"class":"TPV","device":"/dev/serial0","mode":1,"time":"1980-01-06T00:06:36.800Z","ept":0.005}
[2021-07-10T08:38:29.154772Z |   MainThread |     INFO] {"class":"TPV","device":"/dev/serial0","mode":1,"time":"1980-01-06T00:06:37.800Z","ept":0.005}
[2021-07-10T08:38:30.157128Z |   MainThread |     INFO] {"class":"TPV","device":"/dev/serial0","mode":1,"time":"1980-01-06T00:06:38.800Z","ept":0.005}
[2021-07-10T08:38:31.159468Z |   MainThread |     INFO] {"class":"TPV","device":"/dev/serial0","mode":1,"time":"1980-01-06T00:06:39.800Z","ept":0.005}
[2021-07-10T08:38:32.161733Z |   MainThread |     INFO] {"class":"TPV","device":"/dev/serial0","mode":1,"time":"1980-01-06T00:06:40.800Z","ept":0.005}
[2021-07-10T08:38:33.164087Z |   MainThread |     INFO] {"class":"TPV","device":"/dev/serial0","mode":1,"time":"1980-01-06T00:06:41.800Z","ept":0.005}
[2021-07-10T08:38:34.166514Z |   MainThread |     INFO] {"class":"TPV","device":"/dev/serial0","mode":1,"time":"1980-01-06T00:06:42.800Z","ept":0.005}
[2021-07-10T08:38:35.168884Z |   MainThread |     INFO] {"class":"TPV","device":"/dev/serial0","mode":1,"time":"1980-01-06T00:06:43.800Z","ept":0.005}
[2021-07-10T08:38:36.171302Z |   MainThread |     INFO] {"class":"TPV","device":"/dev/serial0","mode":1,"time":"1980-01-06T00:06:44.800Z","ept":0.005}
[2021-07-10T08:38:37.173540Z |   MainThread |     INFO] {"class":"TPV","device":"/dev/serial0","mode":1,"time":"1980-01-06T00:06:45.800Z","ept":0.005}
[2021-07-10T08:38:38.175489Z |   MainThread |     INFO] {"class":"TPV","device":"/dev/serial0","mode":1,"time":"1980-01-06T00:06:46.800Z","ept":0.005}
